{port=15001, GCS_IP=192.168.1.64, system_id=1, flight_status=1, auto_time=0, lat=35.0665953, lon=129.0917174, alt=29.861, dist_traveled=0.0, wp_dist=14, heading=136, target_heading=137, previous_heading=13623, dist_to_home=1.3462532143412583E7, vertical_speed=0.027452376, ground_speed=25.398903, wind_vel=0.0, airspeed=24.92272, gps_hdop=1.21, roll=2.35, pitch=-2.29, yaw=136.52, ch3percent=66.10, ch9out=0, tot=0.55, toh=530043.84, time_in_air=0, ch10out=0, ch11out=0, ch12out=0, battery_voltage=0, battery_current=-1, waypoints_count=0, home_location={lon=129.0921078, lat=35.0766972}, waypoints=[{seq=0, lat=35.0766972, lon=129.0921078, alt=43.85}, {seq=1, lat=0.0, lon=0.0, alt=30.0}, {seq=2, lat=35.074127, lon=129.092103, alt=30.0}, {seq=3, lat=35.068399, lon=129.089666, alt=30.0}, {seq=4, lat=35.066504, lon=129.091809, alt=30.0}, {seq=5, lat=35.06537, lon=129.093095, alt=30.0}, {seq=6, lat=35.064163, lon=129.094466, alt=30.0}, {seq=7, lat=35.062586, lon=129.092356, alt=30.0}, {seq=8, lat=35.061974, lon=129.091509, alt=30.0}, {seq=9, lat=35.06322, lon=129.090181, alt=30.0}, {seq=10, lat=35.064955, lon=129.088335, alt=30.0}, {seq=11, lat=35.066579, lon=129.086606, alt=30.0}, {seq=12, lat=35.067136, lon=129.086013, alt=30.0}, {seq=13, lat=35.074309, lon=129.091761, alt=30.0}, {seq=14, lat=0.0, lon=0.0, alt=0.0}], ch3out=1661, timestamp=2025-05-22 16:14:12}
{port=15001, GCS_IP=192.168.1.64, system_id=1, flight_status=1, auto_time=1, lat=35.0664296, lon=129.0919104, alt=29.905, dist_traveled=25.45630798775339, wp_dist=161, heading=137, target_heading=137, previous_heading=13700, dist_to_home=1141.8463547405217, vertical_speed=0.050353315, ground_speed=25.428205, wind_vel=0.19547503, airspeed=24.962715, gps_hdop=1.21, roll=1.47, pitch=-2.28, yaw=137.18, ch3percent=66.10, ch9out=0, tot=6.33, toh=44.9, time_in_air=1, ch10out=0, ch11out=0, ch12out=0, battery_voltage=0, battery_current=-1, waypoints_count=0, home_location={lon=129.0921078, lat=35.0766972}, waypoints=[{seq=0, lat=35.0766972, lon=129.0921078, alt=43.85}, {seq=1, lat=0.0, lon=0.0, alt=30.0}, {seq=2, lat=35.074127, lon=129.092103, alt=30.0}, {seq=3, lat=35.068399, lon=129.089666, alt=30.0}, {seq=4, lat=35.066504, lon=129.091809, alt=30.0}, {seq=5, lat=35.06537, lon=129.093095, alt=30.0}, {seq=6, lat=35.064163, lon=129.094466, alt=30.0}, {seq=7, lat=35.062586, lon=129.092356, alt=30.0}, {seq=8, lat=35.061974, lon=129.091509, alt=30.0}, {seq=9, lat=35.06322, lon=129.090181, alt=30.0}, {seq=10, lat=35.064955, lon=129.088335, alt=30.0}, {seq=11, lat=35.066579, lon=129.086606, alt=30.0}, {seq=12, lat=35.067136, lon=129.086013, alt=30.0}, {seq=13, lat=35.074309, lon=129.091761, alt=30.0}, {seq=14, lat=0.0, lon=0.0, alt=0.0}], ch3out=1661, timestamp=2025-05-22 16:14:13}
{port=15001, GCS_IP=192.168.1.64, system_id=1, flight_status=1, auto_time=1, lat=35.0662619, lon=129.0921019, alt=29.95, dist_traveled=50.980568319244306, wp_dist=135, heading=137, target_heading=137, previous_heading=13747, dist_to_home=1160.3525422427772, vertical_speed=0.009498436, ground_speed=25.477533, wind_vel=0.20152657, airspeed=24.95131, gps_hdop=1.21, roll=0.97, pitch=-2.34, yaw=137.61, ch3percent=66.00, ch9out=0, tot=5.3, toh=45.54, time_in_air=2, ch10out=0, ch11out=0, ch12out=0, battery_voltage=0, battery_current=-1, waypoints_count=0, home_location={lon=129.0921078, lat=35.0766972}, waypoints=[{seq=0, lat=35.0766972, lon=129.0921078, alt=43.85}, {seq=1, lat=0.0, lon=0.0, alt=30.0}, {seq=2, lat=35.074127, lon=129.092103, alt=30.0}, {seq=3, lat=35.068399, lon=129.089666, alt=30.0}, {seq=4, lat=35.066504, lon=129.091809, alt=30.0}, {seq=5, lat=35.06537, lon=129.093095, alt=30.0}, {seq=6, lat=35.064163, lon=129.094466, alt=30.0}, {seq=7, lat=35.062586, lon=129.092356, alt=30.0}, {seq=8, lat=35.061974, lon=129.091509, alt=30.0}, {seq=9, lat=35.06322, lon=129.090181, alt=30.0}, {seq=10, lat=35.064955, lon=129.088335, alt=30.0}, {seq=11, lat=35.066579, lon=129.086606, alt=30.0}, {seq=12, lat=35.067136, lon=129.086013, alt=30.0}, {seq=13, lat=35.074309, lon=129.091761, alt=30.0}, {seq=14, lat=0.0, lon=0.0, alt=0.0}], ch3out=1660, timestamp=2025-05-22 16:14:14}
{port=15001, GCS_IP=192.168.1.64, system_id=1, flight_status=1, auto_time=2, lat=35.0660931, lon=129.0922922, alt=29.964, dist_traveled=76.52014216381642, wp_dist=110, heading=137, target_heading=137, previous_heading=13781, dist_to_home=1179.241534512608, vertical_speed=0.08616981, ground_speed=25.504913, wind_vel=0.20777936, airspeed=24.971773, gps_hdop=1.21, roll=0.62, pitch=-2.27, yaw=137.85, ch3percent=65.80, ch9out=0, tot=4.31, toh=46.24, time_in_air=3, ch10out=0, ch11out=0, ch12out=0, battery_voltage=0, battery_current=-1, waypoints_count=0, home_location={lon=129.0921078, lat=35.0766972}, waypoints=[{seq=0, lat=35.0766972, lon=129.0921078, alt=43.85}, {seq=1, lat=0.0, lon=0.0, alt=30.0}, {seq=2, lat=35.074127, lon=129.092103, alt=30.0}, {seq=3, lat=35.068399, lon=129.089666, alt=30.0}, {seq=4, lat=35.066504, lon=129.091809, alt=30.0}, {seq=5, lat=35.06537, lon=129.093095, alt=30.0}, {seq=6, lat=35.064163, lon=129.094466, alt=30.0}, {seq=7, lat=35.062586, lon=129.092356, alt=30.0}, {seq=8, lat=35.061974, lon=129.091509, alt=30.0}, {seq=9, lat=35.06322, lon=129.090181, alt=30.0}, {seq=10, lat=35.064955, lon=129.088335, alt=30.0}, {seq=11, lat=35.066579, lon=129.086606, alt=30.0}, {seq=12, lat=35.067136, lon=129.086013, alt=30.0}, {seq=13, lat=35.074309, lon=129.091761, alt=30.0}, {seq=14, lat=0.0, lon=0.0, alt=0.0}], ch3out=1658, timestamp=2025-05-22 16:14:15}
{port=15001, GCS_IP=192.168.1.64, system_id=1, flight_status=1, auto_time=4, lat=35.065924, lon=129.0924817, alt=30.013, dist_traveled=102.03497409538898, wp_dist=84, heading=137, target_heading=137, previous_heading=13795, dist_to_home=1198.4083589788593, vertical_speed=0.015176137, ground_speed=25.50233, wind_vel=0.2136632, airspeed=24.967363, gps_hdop=1.21, roll=-0.04, pitch=-2.42, yaw=137.92, ch3percent=65.80, ch9out=0, tot=3.29, toh=46.99, time_in_air=4, ch10out=0, ch11out=0, ch12out=0, battery_voltage=0, battery_current=-1, waypoints_count=0, home_location={lon=129.0921078, lat=35.0766972}, waypoints=[{seq=0, lat=35.0766972, lon=129.0921078, alt=43.85}, {seq=1, lat=0.0, lon=0.0, alt=30.0}, {seq=2, lat=35.074127, lon=129.092103, alt=30.0}, {seq=3, lat=35.068399, lon=129.089666, alt=30.0}, {seq=4, lat=35.066504, lon=129.091809, alt=30.0}, {seq=5, lat=35.06537, lon=129.093095, alt=30.0}, {seq=6, lat=35.064163, lon=129.094466, alt=30.0}, {seq=7, lat=35.062586, lon=129.092356, alt=30.0}, {seq=8, lat=35.061974, lon=129.091509, alt=30.0}, {seq=9, lat=35.06322, lon=129.090181, alt=30.0}, {seq=10, lat=35.064955, lon=129.088335, alt=30.0}, {seq=11, lat=35.066579, lon=129.086606, alt=30.0}, {seq=12, lat=35.067136, lon=129.086013, alt=30.0}, {seq=13, lat=35.074309, lon=129.091761, alt=30.0}, {seq=14, lat=0.0, lon=0.0, alt=0.0}], ch3out=1658, timestamp=2025-05-22 16:14:16}
{port=15001, GCS_IP=192.168.1.64, system_id=1, flight_status=1, auto_time=5, lat=35.0657553, lon=129.0926708, alt=30.032, dist_traveled=127.49244061496864, wp_dist=59, heading=137, target_heading=137, previous_heading=13794, dist_to_home=1217.762114967947, vertical_speed=0.015187085, ground_speed=25.490479, wind_vel=0.21995306, airspeed=24.956137, gps_hdop=1.21, roll=0.07, pitch=-2.42, yaw=137.91, ch3percent=65.90, ch9out=0, tot=2.31, toh=47.77, time_in_air=5, ch10out=0, ch11out=0, ch12out=0, battery_voltage=0, battery_current=-1, waypoints_count=0, home_location={lon=129.0921078, lat=35.0766972}, waypoints=[{seq=0, lat=35.0766972, lon=129.0921078, alt=43.85}, {seq=1, lat=0.0, lon=0.0, alt=30.0}, {seq=2, lat=35.074127, lon=129.092103, alt=30.0}, {seq=3, lat=35.068399, lon=129.089666, alt=30.0}, {seq=4, lat=35.066504, lon=129.091809, alt=30.0}, {seq=5, lat=35.06537, lon=129.093095, alt=30.0}, {seq=6, lat=35.064163, lon=129.094466, alt=30.0}, {seq=7, lat=35.062586, lon=129.092356, alt=30.0}, {seq=8, lat=35.061974, lon=129.091509, alt=30.0}, {seq=9, lat=35.06322, lon=129.090181, alt=30.0}, {seq=10, lat=35.064955, lon=129.088335, alt=30.0}, {seq=11, lat=35.066579, lon=129.086606, alt=30.0}, {seq=12, lat=35.067136, lon=129.086013, alt=30.0}, {seq=13, lat=35.074309, lon=129.091761, alt=30.0}, {seq=14, lat=0.0, lon=0.0, alt=0.0}], ch3out=1659, timestamp=2025-05-22 16:14:17}
{port=15001, GCS_IP=192.168.1.64, system_id=1, flight_status=1, auto_time=5, lat=35.065671, lon=129.0927653, alt=30.043, dist_traveled=140.2140097110941, wp_dist=46, heading=137, target_heading=137, previous_heading=13790, dist_to_home=1227.5167668637137, vertical_speed=-0.0061641484, ground_speed=25.487825, wind_vel=0.22323029, airspeed=24.979889, gps_hdop=1.21, roll=0.06, pitch=-2.52, yaw=137.90, ch3percent=65.80, ch9out=0, tot=1.8, toh=48.16, time_in_air=5, ch10out=0, ch11out=0, ch12out=0, battery_voltage=0, battery_current=-1, waypoints_count=0, home_location={lon=129.0921078, lat=35.0766972}, waypoints=[{seq=0, lat=35.0766972, lon=129.0921078, alt=43.85}, {seq=1, lat=0.0, lon=0.0, alt=30.0}, {seq=2, lat=35.074127, lon=129.092103, alt=30.0}, {seq=3, lat=35.068399, lon=129.089666, alt=30.0}, {seq=4, lat=35.066504, lon=129.091809, alt=30.0}, {seq=5, lat=35.06537, lon=129.093095, alt=30.0}, {seq=6, lat=35.064163, lon=129.094466, alt=30.0}, {seq=7, lat=35.062586, lon=129.092356, alt=30.0}, {seq=8, lat=35.061974, lon=129.091509, alt=30.0}, {seq=9, lat=35.06322, lon=129.090181, alt=30.0}, {seq=10, lat=35.064955, lon=129.088335, alt=30.0}, {seq=11, lat=35.066579, lon=129.086606, alt=30.0}, {seq=12, lat=35.067136, lon=129.086013, alt=30.0}, {seq=13, lat=35.074309, lon=129.091761, alt=30.0}, {seq=14, lat=0.0, lon=0.0, alt=0.0}], ch3out=1658, timestamp=2025-05-22 16:14:18}
{port=15001, GCS_IP=192.168.1.64, system_id=1, flight_status=1, auto_time=7, lat=35.0655867, lon=129.0928598, alt=30.017, dist_traveled=152.93558481457254, wp_dist=33, heading=137, target_heading=137, previous_heading=13787, dist_to_home=1237.3253073252818, vertical_speed=-0.0023503958, ground_speed=25.498085, wind_vel=0.22634324, airspeed=24.997318, gps_hdop=1.21, roll=-0.06, pitch=-2.38, yaw=137.95, ch3percent=65.80, ch9out=0, tot=1.29, toh=48.53, time_in_air=7, ch10out=0, ch11out=0, ch12out=0, battery_voltage=0, battery_current=-1, waypoints_count=0, home_location={lon=129.0921078, lat=35.0766972}, waypoints=[{seq=0, lat=35.0766972, lon=129.0921078, alt=43.85}, {seq=1, lat=0.0, lon=0.0, alt=30.0}, {seq=2, lat=35.074127, lon=129.092103, alt=30.0}, {seq=3, lat=35.068399, lon=129.089666, alt=30.0}, {seq=4, lat=35.066504, lon=129.091809, alt=30.0}, {seq=5, lat=35.06537, lon=129.093095, alt=30.0}, {seq=6, lat=35.064163, lon=129.094466, alt=30.0}, {seq=7, lat=35.062586, lon=129.092356, alt=30.0}, {seq=8, lat=35.061974, lon=129.091509, alt=30.0}, {seq=9, lat=35.06322, lon=129.090181, alt=30.0}, {seq=10, lat=35.064955, lon=129.088335, alt=30.0}, {seq=11, lat=35.066579, lon=129.086606, alt=30.0}, {seq=12, lat=35.067136, lon=129.086013, alt=30.0}, {seq=13, lat=35.074309, lon=129.091761, alt=30.0}, {seq=14, lat=0.0, lon=0.0, alt=0.0}], ch3out=1658, timestamp=2025-05-22 16:14:19}
{port=15001, GCS_IP=192.168.1.64, system_id=1, flight_status=1, auto_time=7, lat=35.0654184, lon=129.0930486, alt=30.024, dist_traveled=178.34187375860785, wp_dist=8, heading=137, target_heading=137, previous_heading=13793, dist_to_home=1257.0644813359775, vertical_speed=5.790279E-4, ground_speed=25.46731, wind_vel=0.23392692, airspeed=24.944674, gps_hdop=1.21, roll=-0.20, pitch=-2.39, yaw=137.94, ch3percent=66.10, ch9out=0, tot=0.31, toh=49.36, time_in_air=7, ch10out=0, ch11out=0, ch12out=0, battery_voltage=0, battery_current=-1, waypoints_count=0, home_location={lon=129.0921078, lat=35.0766972}, waypoints=[{seq=0, lat=35.0766972, lon=129.0921078, alt=43.85}, {seq=1, lat=0.0, lon=0.0, alt=30.0}, {seq=2, lat=35.074127, lon=129.092103, alt=30.0}, {seq=3, lat=35.068399, lon=129.089666, alt=30.0}, {seq=4, lat=35.066504, lon=129.091809, alt=30.0}, {seq=5, lat=35.06537, lon=129.093095, alt=30.0}, {seq=6, lat=35.064163, lon=129.094466, alt=30.0}, {seq=7, lat=35.062586, lon=129.092356, alt=30.0}, {seq=8, lat=35.061974, lon=129.091509, alt=30.0}, {seq=9, lat=35.06322, lon=129.090181, alt=30.0}, {seq=10, lat=35.064955, lon=129.088335, alt=30.0}, {seq=11, lat=35.066579, lon=129.086606, alt=30.0}, {seq=12, lat=35.067136, lon=129.086013, alt=30.0}, {seq=13, lat=35.074309, lon=129.091761, alt=30.0}, {seq=14, lat=0.0, lon=0.0, alt=0.0}], ch3out=1661, timestamp=2025-05-22 16:14:20}
{port=15001, GCS_IP=192.168.1.64, system_id=1, flight_status=1, auto_time=8, lat=35.0653347, lon=129.0931425, alt=30.025, dist_traveled=190.97738964840335, wp_dist=179, heading=137, target_heading=137, previous_heading=13786, dist_to_home=1266.9565012962496, vertical_speed=0.0013694948, ground_speed=25.448494, wind_vel=0.23811427, airspeed=24.977358, gps_hdop=1.21, roll=-0.18, pitch=-2.32, yaw=137.86, ch3percent=66.00, ch9out=0, tot=7.03, toh=49.79, time_in_air=8, ch10out=0, ch11out=0, ch12out=0, battery_voltage=0, battery_current=-1, waypoints_count=0, home_location={lon=129.0921078, lat=35.0766972}, waypoints=[{seq=0, lat=35.0766972, lon=129.0921078, alt=43.85}, {seq=1, lat=0.0, lon=0.0, alt=30.0}, {seq=2, lat=35.074127, lon=129.092103, alt=30.0}, {seq=3, lat=35.068399, lon=129.089666, alt=30.0}, {seq=4, lat=35.066504, lon=129.091809, alt=30.0}, {seq=5, lat=35.06537, lon=129.093095, alt=30.0}, {seq=6, lat=35.064163, lon=129.094466, alt=30.0}, {seq=7, lat=35.062586, lon=129.092356, alt=30.0}, {seq=8, lat=35.061974, lon=129.091509, alt=30.0}, {seq=9, lat=35.06322, lon=129.090181, alt=30.0}, {seq=10, lat=35.064955, lon=129.088335, alt=30.0}, {seq=11, lat=35.066579, lon=129.086606, alt=30.0}, {seq=12, lat=35.067136, lon=129.086013, alt=30.0}, {seq=13, lat=35.074309, lon=129.091761, alt=30.0}, {seq=14, lat=0.0, lon=0.0, alt=0.0}], ch3out=1660, timestamp=2025-05-22 16:14:21}
{port=15001, GCS_IP=192.168.1.64, system_id=1, flight_status=1, auto_time=10, lat=35.0651671, lon=129.0933312, alt=30.0, dist_traveled=216.32027109211742, wp_dist=153, heading=137, target_heading=137, previous_heading=13774, dist_to_home=1286.913847670167, vertical_speed=0.0072352807, ground_speed=25.424551, wind_vel=0.24693558, airspeed=24.990746, gps_hdop=1.21, roll=-0.10, pitch=-2.30, yaw=137.72, ch3percent=65.80, ch9out=0, tot=6.02, toh=50.62, time_in_air=10, ch10out=0, ch11out=0, ch12out=0, battery_voltage=0, battery_current=-1, waypoints_count=0, home_location={lon=129.0921078, lat=35.0766972}, waypoints=[{seq=0, lat=35.0766972, lon=129.0921078, alt=43.85}, {seq=1, lat=0.0, lon=0.0, alt=30.0}, {seq=2, lat=35.074127, lon=129.092103, alt=30.0}, {seq=3, lat=35.068399, lon=129.089666, alt=30.0}, {seq=4, lat=35.066504, lon=129.091809, alt=30.0}, {seq=5, lat=35.06537, lon=129.093095, alt=30.0}, {seq=6, lat=35.064163, lon=129.094466, alt=30.0}, {seq=7, lat=35.062586, lon=129.092356, alt=30.0}, {seq=8, lat=35.061974, lon=129.091509, alt=30.0}, {seq=9, lat=35.06322, lon=129.090181, alt=30.0}, {seq=10, lat=35.064955, lon=129.088335, alt=30.0}, {seq=11, lat=35.066579, lon=129.086606, alt=30.0}, {seq=12, lat=35.067136, lon=129.086013, alt=30.0}, {seq=13, lat=35.074309, lon=129.091761, alt=30.0}, {seq=14, lat=0.0, lon=0.0, alt=0.0}], ch3out=1658, timestamp=2025-05-22 16:14:22}
{port=15001, GCS_IP=192.168.1.64, system_id=1, flight_status=1, auto_time=10, lat=35.0651671, lon=129.0933312, alt=30.0, dist_traveled=216.32027109211742, wp_dist=153, heading=137, target_heading=137, previous_heading=13774, dist_to_home=1286.913847670167, vertical_speed=0.0072352807, ground_speed=25.424551, wind_vel=0.24693558, airspeed=24.990746, gps_hdop=1.21, roll=-0.10, pitch=-2.30, yaw=137.72, ch3percent=65.80, ch9out=0, tot=6.02, toh=50.62, time_in_air=10, ch10out=0, ch11out=0, ch12out=0, battery_voltage=0, battery_current=-1, waypoints_count=0, home_location={lon=129.0921078, lat=35.0766972}, waypoints=[{seq=0, lat=35.0766972, lon=129.0921078, alt=43.85}, {seq=1, lat=0.0, lon=0.0, alt=30.0}, {seq=2, lat=35.074127, lon=129.092103, alt=30.0}, {seq=3, lat=35.068399, lon=129.089666, alt=30.0}, {seq=4, lat=35.066504, lon=129.091809, alt=30.0}, {seq=5, lat=35.06537, lon=129.093095, alt=30.0}, {seq=6, lat=35.064163, lon=129.094466, alt=30.0}, {seq=7, lat=35.062586, lon=129.092356, alt=30.0}, {seq=8, lat=35.061974, lon=129.091509, alt=30.0}, {seq=9, lat=35.06322, lon=129.090181, alt=30.0}, {seq=10, lat=35.064955, lon=129.088335, alt=30.0}, {seq=11, lat=35.066579, lon=129.086606, alt=30.0}, {seq=12, lat=35.067136, lon=129.086013, alt=30.0}, {seq=13, lat=35.074309, lon=129.091761, alt=30.0}, {seq=14, lat=0.0, lon=0.0, alt=0.0}], ch3out=1658, timestamp=2025-05-22 16:14:23}
{port=15001, GCS_IP=192.168.1.64, system_id=1, flight_status=1, auto_time=11, lat=35.0649148, lon=129.0936164, alt=30.003, dist_traveled=254.54089849493772, wp_dist=115, heading=137, target_heading=137, previous_heading=13759, dist_to_home=1317.3170555175216, vertical_speed=0.015495332, ground_speed=25.434792, wind_vel=0.25775024, airspeed=24.992317, gps_hdop=1.21, roll=-0.26, pitch=-2.42, yaw=137.63, ch3percent=65.90, ch9out=0, tot=4.52, toh=51.79, time_in_air=11, ch10out=0, ch11out=0, ch12out=0, battery_voltage=0, battery_current=-1, waypoints_count=0, home_location={lon=129.0921078, lat=35.0766972}, waypoints=[{seq=0, lat=35.0766972, lon=129.0921078, alt=43.85}, {seq=1, lat=0.0, lon=0.0, alt=30.0}, {seq=2, lat=35.074127, lon=129.092103, alt=30.0}, {seq=3, lat=35.068399, lon=129.089666, alt=30.0}, {seq=4, lat=35.066504, lon=129.091809, alt=30.0}, {seq=5, lat=35.06537, lon=129.093095, alt=30.0}, {seq=6, lat=35.064163, lon=129.094466, alt=30.0}, {seq=7, lat=35.062586, lon=129.092356, alt=30.0}, {seq=8, lat=35.061974, lon=129.091509, alt=30.0}, {seq=9, lat=35.06322, lon=129.090181, alt=30.0}, {seq=10, lat=35.064955, lon=129.088335, alt=30.0}, {seq=11, lat=35.066579, lon=129.086606, alt=30.0}, {seq=12, lat=35.067136, lon=129.086013, alt=30.0}, {seq=13, lat=35.074309, lon=129.091761, alt=30.0}, {seq=14, lat=0.0, lon=0.0, alt=0.0}], ch3out=1659, timestamp=2025-05-22 16:14:24}
{port=15001, GCS_IP=192.168.1.64, system_id=1, flight_status=1, auto_time=13, lat=35.0644648, lon=129.0940365, alt=30.526, dist_traveled=318.2908881109279, wp_dist=260, heading=165, target_heading=-170, previous_heading=16506, dist_to_home=1371.4594063896313, vertical_speed=2.7025352, ground_speed=25.674305, wind_vel=0.27215737, airspeed=25.31968, gps_hdop=1.21, roll=34.28, pitch=5.87, yaw=165.07, ch3percent=71.00, ch9out=0, tot=10.13, toh=53.42, time_in_air=13, ch10out=0, ch11out=0, ch12out=0, battery_voltage=0, battery_current=-1, waypoints_count=0, home_location={lon=129.0921078, lat=35.0766972}, waypoints=[{seq=0, lat=35.0766972, lon=129.0921078, alt=43.85}, {seq=1, lat=0.0, lon=0.0, alt=30.0}, {seq=2, lat=35.074127, lon=129.092103, alt=30.0}, {seq=3, lat=35.068399, lon=129.089666, alt=30.0}, {seq=4, lat=35.066504, lon=129.091809, alt=30.0}, {seq=5, lat=35.06537, lon=129.093095, alt=30.0}, {seq=6, lat=35.064163, lon=129.094466, alt=30.0}, {seq=7, lat=35.062586, lon=129.092356, alt=30.0}, {seq=8, lat=35.061974, lon=129.091509, alt=30.0}, {seq=9, lat=35.06322, lon=129.090181, alt=30.0}, {seq=10, lat=35.064955, lon=129.088335, alt=30.0}, {seq=11, lat=35.066579, lon=129.086606, alt=30.0}, {seq=12, lat=35.067136, lon=129.086013, alt=30.0}, {seq=13, lat=35.074309, lon=129.091761, alt=30.0}, {seq=14, lat=0.0, lon=0.0, alt=0.0}], ch3out=1710, timestamp=2025-05-22 16:14:25}
{port=15001, GCS_IP=192.168.1.64, system_id=1, flight_status=1, auto_time=13, lat=35.0642382, lon=129.0940824, alt=31.209, dist_traveled=343.8425977733196, wp_dist=243, heading=179, target_heading=-153, previous_heading=17472, dist_to_home=1396.9839152613342, vertical_speed=-0.20961401, ground_speed=25.447681, wind_vel=0.27740785, airspeed=24.930088, gps_hdop=1.21, roll=41.25, pitch=-0.77, yaw=179.35, ch3percent=66.80, ch9out=0, tot=9.55, toh=54.9, time_in_air=13, ch10out=0, ch11out=0, ch12out=0, battery_voltage=0, battery_current=-1, waypoints_count=0, home_location={lon=129.0921078, lat=35.0766972}, waypoints=[{seq=0, lat=35.0766972, lon=129.0921078, alt=43.85}, {seq=1, lat=0.0, lon=0.0, alt=30.0}, {seq=2, lat=35.074127, lon=129.092103, alt=30.0}, {seq=3, lat=35.068399, lon=129.089666, alt=30.0}, {seq=4, lat=35.066504, lon=129.091809, alt=30.0}, {seq=5, lat=35.06537, lon=129.093095, alt=30.0}, {seq=6, lat=35.064163, lon=129.094466, alt=30.0}, {seq=7, lat=35.062586, lon=129.092356, alt=30.0}, {seq=8, lat=35.061974, lon=129.091509, alt=30.0}, {seq=9, lat=35.06322, lon=129.090181, alt=30.0}, {seq=10, lat=35.064955, lon=129.088335, alt=30.0}, {seq=11, lat=35.066579, lon=129.086606, alt=30.0}, {seq=12, lat=35.067136, lon=129.086013, alt=30.0}, {seq=13, lat=35.074309, lon=129.091761, alt=30.0}, {seq=14, lat=0.0, lon=0.0, alt=0.0}], ch3out=1668, timestamp=2025-05-22 16:14:26}
{port=15001, GCS_IP=192.168.1.64, system_id=1, flight_status=1, auto_time=14, lat=35.0640104, lon=129.0940578, alt=31.076, dist_traveled=369.33452965682494, wp_dist=223, heading=193, target_heading=-141, previous_heading=19024, dist_to_home=1421.8262718232304, vertical_speed=-0.33980438, ground_speed=25.49055, wind_vel=0.28142157, airspeed=24.93245, gps_hdop=1.21, roll=36.55, pitch=-1.98, yaw=-166.35, ch3percent=64.90, ch9out=0, tot=8.75, toh=55.78, time_in_air=14, ch10out=0, ch11out=0, ch12out=0, battery_voltage=0, battery_current=-1, waypoints_count=0, home_location={lon=129.0921078, lat=35.0766972}, waypoints=[{seq=0, lat=35.0766972, lon=129.0921078, alt=43.85}, {seq=1, lat=0.0, lon=0.0, alt=30.0}, {seq=2, lat=35.074127, lon=129.092103, alt=30.0}, {seq=3, lat=35.068399, lon=129.089666, alt=30.0}, {seq=4, lat=35.066504, lon=129.091809, alt=30.0}, {seq=5, lat=35.06537, lon=129.093095, alt=30.0}, {seq=6, lat=35.064163, lon=129.094466, alt=30.0}, {seq=7, lat=35.062586, lon=129.092356, alt=30.0}, {seq=8, lat=35.061974, lon=129.091509, alt=30.0}, {seq=9, lat=35.06322, lon=129.090181, alt=30.0}, {seq=10, lat=35.064955, lon=129.088335, alt=30.0}, {seq=11, lat=35.066579, lon=129.086606, alt=30.0}, {seq=12, lat=35.067136, lon=129.086013, alt=30.0}, {seq=13, lat=35.074309, lon=129.091761, alt=30.0}, {seq=14, lat=0.0, lon=0.0, alt=0.0}], ch3out=1649, timestamp=2025-05-22 16:14:27}
{port=15001, GCS_IP=192.168.1.64, system_id=1, flight_status=1, auto_time=16, lat=35.0636935, lon=129.0938993, alt=30.525, dist_traveled=407.5789011358706, wp_dist=188, heading=209, target_heading=-130, previous_heading=20960, dist_to_home=1455.1083208439977, vertical_speed=-0.43269566, ground_speed=25.521189, wind_vel=0.28743768, airspeed=25.007566, gps_hdop=1.21, roll=30.61, pitch=-2.42, yaw=-150.40, ch3percent=63.60, ch9out=0, tot=7.37, toh=57.02, time_in_air=16, ch10out=0, ch11out=0, ch12out=0, battery_voltage=0, battery_current=-1, waypoints_count=0, home_location={lon=129.0921078, lat=35.0766972}, waypoints=[{seq=0, lat=35.0766972, lon=129.0921078, alt=43.85}, {seq=1, lat=0.0, lon=0.0, alt=30.0}, {seq=2, lat=35.074127, lon=129.092103, alt=30.0}, {seq=3, lat=35.068399, lon=129.089666, alt=30.0}, {seq=4, lat=35.066504, lon=129.091809, alt=30.0}, {seq=5, lat=35.06537, lon=129.093095, alt=30.0}, {seq=6, lat=35.064163, lon=129.094466, alt=30.0}, {seq=7, lat=35.062586, lon=129.092356, alt=30.0}, {seq=8, lat=35.061974, lon=129.091509, alt=30.0}, {seq=9, lat=35.06322, lon=129.090181, alt=30.0}, {seq=10, lat=35.064955, lon=129.088335, alt=30.0}, {seq=11, lat=35.066579, lon=129.086606, alt=30.0}, {seq=12, lat=35.067136, lon=129.086013, alt=30.0}, {seq=13, lat=35.074309, lon=129.091761, alt=30.0}, {seq=14, lat=0.0, lon=0.0, alt=0.0}], ch3out=1636, timestamp=2025-05-22 16:14:28}
{port=15001, GCS_IP=192.168.1.64, system_id=1, flight_status=1, auto_time=17, lat=35.0635988, lon=129.0938208, alt=30.317, dist_traveled=420.3040841006917, wp_dist=176, heading=214, target_heading=-128, previous_heading=21486, dist_to_home=1464.795109575176, vertical_speed=-0.43081227, ground_speed=25.497328, wind_vel=0.28932333, airspeed=24.952623, gps_hdop=1.21, roll=25.12, pitch=-2.80, yaw=-142.88, ch3percent=63.30, ch9out=0, tot=6.9, toh=57.45, time_in_air=17, ch10out=0, ch11out=0, ch12out=0, battery_voltage=0, battery_current=-1, waypoints_count=0, home_location={lon=129.0921078, lat=35.0766972}, waypoints=[{seq=0, lat=35.0766972, lon=129.0921078, alt=43.85}, {seq=1, lat=0.0, lon=0.0, alt=30.0}, {seq=2, lat=35.074127, lon=129.092103, alt=30.0}, {seq=3, lat=35.068399, lon=129.089666, alt=30.0}, {seq=4, lat=35.066504, lon=129.091809, alt=30.0}, {seq=5, lat=35.06537, lon=129.093095, alt=30.0}, {seq=6, lat=35.064163, lon=129.094466, alt=30.0}, {seq=7, lat=35.062586, lon=129.092356, alt=30.0}, {seq=8, lat=35.061974, lon=129.091509, alt=30.0}, {seq=9, lat=35.06322, lon=129.090181, alt=30.0}, {seq=10, lat=35.064955, lon=129.088335, alt=30.0}, {seq=11, lat=35.066579, lon=129.086606, alt=30.0}, {seq=12, lat=35.067136, lon=129.086013, alt=30.0}, {seq=13, lat=35.074309, lon=129.091761, alt=30.0}, {seq=14, lat=0.0, lon=0.0, alt=0.0}], ch3out=1633, timestamp=2025-05-22 16:14:29}
{port=15001, GCS_IP=192.168.1.64, system_id=1, flight_status=1, auto_time=17, lat=35.0634257, lon=129.0936381, alt=29.86, dist_traveled=445.7553935724242, wp_dist=151, heading=221, target_heading=-125, previous_heading=22312, dist_to_home=1482.2805222376578, vertical_speed=-0.409646, ground_speed=25.499355, wind_vel=0.29095063, airspeed=24.932804, gps_hdop=1.21, roll=21.24, pitch=-2.91, yaw=-138.65, ch3percent=63.70, ch9out=0, tot=6.9, toh=57.8, time_in_air=17, ch10out=0, ch11out=0, ch12out=0, battery_voltage=0, battery_current=-1, waypoints_count=0, home_location={lon=129.0921078, lat=35.0766972}, waypoints=[{seq=0, lat=35.0766972, lon=129.0921078, alt=43.85}, {seq=1, lat=0.0, lon=0.0, alt=30.0}, {seq=2, lat=35.074127, lon=129.092103, alt=30.0}, {seq=3, lat=35.068399, lon=129.089666, alt=30.0}, {seq=4, lat=35.066504, lon=129.091809, alt=30.0}, {seq=5, lat=35.06537, lon=129.093095, alt=30.0}, {seq=6, lat=35.064163, lon=129.094466, alt=30.0}, {seq=7, lat=35.062586, lon=129.092356, alt=30.0}, {seq=8, lat=35.061974, lon=129.091509, alt=30.0}, {seq=9, lat=35.06322, lon=129.090181, alt=30.0}, {seq=10, lat=35.064955, lon=129.088335, alt=30.0}, {seq=11, lat=35.066579, lon=129.086606, alt=30.0}, {seq=12, lat=35.067136, lon=129.086013, alt=30.0}, {seq=13, lat=35.074309, lon=129.091761, alt=30.0}, {seq=14, lat=0.0, lon=0.0, alt=0.0}], ch3out=1637, timestamp=2025-05-22 16:14:30}
{port=15001, GCS_IP=192.168.1.64, system_id=1, flight_status=1, auto_time=17, lat=35.0634257, lon=129.0936381, alt=29.86, dist_traveled=445.7553935724242, wp_dist=151, heading=224, target_heading=-125, previous_heading=22312, dist_to_home=1482.2805222376578, vertical_speed=-0.36535907, ground_speed=25.511559, wind_vel=0.29229394, airspeed=24.956877, gps_hdop=1.21, roll=16.85, pitch=-2.97, yaw=-135.25, ch3percent=63.70, ch9out=0, tot=5.92, toh=58.1, time_in_air=17, ch10out=0, ch11out=0, ch12out=0, battery_voltage=0, battery_current=-1, waypoints_count=0, home_location={lon=129.0921078, lat=35.0766972}, waypoints=[{seq=0, lat=35.0766972, lon=129.0921078, alt=43.85}, {seq=1, lat=0.0, lon=0.0, alt=30.0}, {seq=2, lat=35.074127, lon=129.092103, alt=30.0}, {seq=3, lat=35.068399, lon=129.089666, alt=30.0}, {seq=4, lat=35.066504, lon=129.091809, alt=30.0}, {seq=5, lat=35.06537, lon=129.093095, alt=30.0}, {seq=6, lat=35.064163, lon=129.094466, alt=30.0}, {seq=7, lat=35.062586, lon=129.092356, alt=30.0}, {seq=8, lat=35.061974, lon=129.091509, alt=30.0}, {seq=9, lat=35.06322, lon=129.090181, alt=30.0}, {seq=10, lat=35.064955, lon=129.088335, alt=30.0}, {seq=11, lat=35.066579, lon=129.086606, alt=30.0}, {seq=12, lat=35.067136, lon=129.086013, alt=30.0}, {seq=13, lat=35.074309, lon=129.091761, alt=30.0}, {seq=14, lat=0.0, lon=0.0, alt=0.0}], ch3out=1637, timestamp=2025-05-22 16:14:31}
{port=15001, GCS_IP=192.168.1.64, system_id=1, flight_status=1, auto_time=19, lat=35.0630543, lon=129.0931034, alt=29.272, dist_traveled=509.6306433670856, wp_dist=87, heading=232, target_heading=-127, previous_heading=23235, dist_to_home=1519.7247100943791, vertical_speed=-0.03633443, ground_speed=25.580881, wind_vel=0.29706877, airspeed=24.996445, gps_hdop=1.21, roll=1.31, pitch=-2.56, yaw=-127.45, ch3percent=66.10, ch9out=0, tot=3.4, toh=59.41, time_in_air=19, ch10out=0, ch11out=0, ch12out=0, battery_voltage=0, battery_current=-1, waypoints_count=0, home_location={lon=129.0921078, lat=35.0766972}, waypoints=[{seq=0, lat=35.0766972, lon=129.0921078, alt=43.85}, {seq=1, lat=0.0, lon=0.0, alt=30.0}, {seq=2, lat=35.074127, lon=129.092103, alt=30.0}, {seq=3, lat=35.068399, lon=129.089666, alt=30.0}, {seq=4, lat=35.066504, lon=129.091809, alt=30.0}, {seq=5, lat=35.06537, lon=129.093095, alt=30.0}, {seq=6, lat=35.064163, lon=129.094466, alt=30.0}, {seq=7, lat=35.062586, lon=129.092356, alt=30.0}, {seq=8, lat=35.061974, lon=129.091509, alt=30.0}, {seq=9, lat=35.06322, lon=129.090181, alt=30.0}, {seq=10, lat=35.064955, lon=129.088335, alt=30.0}, {seq=11, lat=35.066579, lon=129.086606, alt=30.0}, {seq=12, lat=35.067136, lon=129.086013, alt=30.0}, {seq=13, lat=35.074309, lon=129.091761, alt=30.0}, {seq=14, lat=0.0, lon=0.0, alt=0.0}], ch3out=1661, timestamp=2025-05-22 16:14:32}
{port=15001, GCS_IP=192.168.1.64, system_id=1, flight_status=1, auto_time=20, lat=35.0629156, lon=129.0928822, alt=29.267, dist_traveled=534.9916879434265, wp_dist=61, heading=232, target_heading=-128, previous_heading=23271, dist_to_home=1534.063734861233, vertical_speed=0.038936265, ground_speed=25.531929, wind_vel=0.29939005, airspeed=25.00278, gps_hdop=1.21, roll=-1.59, pitch=-2.35, yaw=-127.36, ch3percent=66.60, ch9out=0, tot=2.39, toh=60.08, time_in_air=20, ch10out=0, ch11out=0, ch12out=0, battery_voltage=0, battery_current=-1, waypoints_count=0, home_location={lon=129.0921078, lat=35.0766972}, waypoints=[{seq=0, lat=35.0766972, lon=129.0921078, alt=43.85}, {seq=1, lat=0.0, lon=0.0, alt=30.0}, {seq=2, lat=35.074127, lon=129.092103, alt=30.0}, {seq=3, lat=35.068399, lon=129.089666, alt=30.0}, {seq=4, lat=35.066504, lon=129.091809, alt=30.0}, {seq=5, lat=35.06537, lon=129.093095, alt=30.0}, {seq=6, lat=35.064163, lon=129.094466, alt=30.0}, {seq=7, lat=35.062586, lon=129.092356, alt=30.0}, {seq=8, lat=35.061974, lon=129.091509, alt=30.0}, {seq=9, lat=35.06322, lon=129.090181, alt=30.0}, {seq=10, lat=35.064955, lon=129.088335, alt=30.0}, {seq=11, lat=35.066579, lon=129.086606, alt=30.0}, {seq=12, lat=35.067136, lon=129.086013, alt=30.0}, {seq=13, lat=35.074309, lon=129.091761, alt=30.0}, {seq=14, lat=0.0, lon=0.0, alt=0.0}], ch3out=1666, timestamp=2025-05-22 16:14:33}
{port=15001, GCS_IP=192.168.1.64, system_id=1, flight_status=1, auto_time=21, lat=35.0627751, lon=129.0926609, alt=29.335, dist_traveled=560.4823244249188, wp_dist=36, heading=232, target_heading=-130, previous_heading=23217, dist_to_home=1548.885033889417, vertical_speed=0.10443563, ground_speed=25.509243, wind_vel=0.30194724, airspeed=25.011473, gps_hdop=1.21, roll=-2.69, pitch=-2.18, yaw=-127.97, ch3percent=66.60, ch9out=0, tot=1.41, toh=60.72, time_in_air=22, ch10out=0, ch11out=0, ch12out=0, battery_voltage=0, battery_current=-1, waypoints_count=0, home_location={lon=129.0921078, lat=35.0766972}, waypoints=[{seq=0, lat=35.0766972, lon=129.0921078, alt=43.85}, {seq=1, lat=0.0, lon=0.0, alt=30.0}, {seq=2, lat=35.074127, lon=129.092103, alt=30.0}, {seq=3, lat=35.068399, lon=129.089666, alt=30.0}, {seq=4, lat=35.066504, lon=129.091809, alt=30.0}, {seq=5, lat=35.06537, lon=129.093095, alt=30.0}, {seq=6, lat=35.064163, lon=129.094466, alt=30.0}, {seq=7, lat=35.062586, lon=129.092356, alt=30.0}, {seq=8, lat=35.061974, lon=129.091509, alt=30.0}, {seq=9, lat=35.06322, lon=129.090181, alt=30.0}, {seq=10, lat=35.064955, lon=129.088335, alt=30.0}, {seq=11, lat=35.066579, lon=129.086606, alt=30.0}, {seq=12, lat=35.067136, lon=129.086013, alt=30.0}, {seq=13, lat=35.074309, lon=129.091761, alt=30.0}, {seq=14, lat=0.0, lon=0.0, alt=0.0}], ch3out=1666, timestamp=2025-05-22 16:14:34}
{port=15001, GCS_IP=192.168.1.64, system_id=1, flight_status=1, auto_time=22, lat=35.0626318, lon=129.0924421, alt=29.435, dist_traveled=585.9870370322957, wp_dist=10, heading=231, target_heading=-131, previous_heading=23134, dist_to_home=1564.2970063658893, vertical_speed=0.07751479, ground_speed=25.498251, wind_vel=0.30468526, airspeed=25.031881, gps_hdop=1.21, roll=-3.14, pitch=-2.22, yaw=-128.99, ch3percent=66.70, ch9out=0, tot=0.39, toh=61.35, time_in_air=23, ch10out=0, ch11out=0, ch12out=0, battery_voltage=0, battery_current=-1, waypoints_count=0, home_location={lon=129.0921078, lat=35.0766972}, waypoints=[{seq=0, lat=35.0766972, lon=129.0921078, alt=43.85}, {seq=1, lat=0.0, lon=0.0, alt=30.0}, {seq=2, lat=35.074127, lon=129.092103, alt=30.0}, {seq=3, lat=35.068399, lon=129.089666, alt=30.0}, {seq=4, lat=35.066504, lon=129.091809, alt=30.0}, {seq=5, lat=35.06537, lon=129.093095, alt=30.0}, {seq=6, lat=35.064163, lon=129.094466, alt=30.0}, {seq=7, lat=35.062586, lon=129.092356, alt=30.0}, {seq=8, lat=35.061974, lon=129.091509, alt=30.0}, {seq=9, lat=35.06322, lon=129.090181, alt=30.0}, {seq=10, lat=35.064955, lon=129.088335, alt=30.0}, {seq=11, lat=35.066579, lon=129.086606, alt=30.0}, {seq=12, lat=35.067136, lon=129.086013, alt=30.0}, {seq=13, lat=35.074309, lon=129.091761, alt=30.0}, {seq=14, lat=0.0, lon=0.0, alt=0.0}], ch3out=1667, timestamp=2025-05-22 16:14:35}
{port=15001, GCS_IP=192.168.1.64, system_id=1, flight_status=1, auto_time=23, lat=35.062485, lon=129.0922264, alt=29.531, dist_traveled=611.5191370671953, wp_dist=88, heading=230, target_heading=-130, previous_heading=23044, dist_to_home=1580.361395780045, vertical_speed=0.122864164, ground_speed=25.520842, wind_vel=0.30702585, airspeed=25.011463, gps_hdop=1.21, roll=-0.45, pitch=-2.18, yaw=-129.82, ch3percent=66.50, ch9out=0, tot=3.45, toh=61.92, time_in_air=23, ch10out=0, ch11out=0, ch12out=0, battery_voltage=0, battery_current=-1, waypoints_count=0, home_location={lon=129.0921078, lat=35.0766972}, waypoints=[{seq=0, lat=35.0766972, lon=129.0921078, alt=43.85}, {seq=1, lat=0.0, lon=0.0, alt=30.0}, {seq=2, lat=35.074127, lon=129.092103, alt=30.0}, {seq=3, lat=35.068399, lon=129.089666, alt=30.0}, {seq=4, lat=35.066504, lon=129.091809, alt=30.0}, {seq=5, lat=35.06537, lon=129.093095, alt=30.0}, {seq=6, lat=35.064163, lon=129.094466, alt=30.0}, {seq=7, lat=35.062586, lon=129.092356, alt=30.0}, {seq=8, lat=35.061974, lon=129.091509, alt=30.0}, {seq=9, lat=35.06322, lon=129.090181, alt=30.0}, {seq=10, lat=35.064955, lon=129.088335, alt=30.0}, {seq=11, lat=35.066579, lon=129.086606, alt=30.0}, {seq=12, lat=35.067136, lon=129.086013, alt=30.0}, {seq=13, lat=35.074309, lon=129.091761, alt=30.0}, {seq=14, lat=0.0, lon=0.0, alt=0.0}], ch3out=1665, timestamp=2025-05-22 16:14:36}
{port=15001, GCS_IP=192.168.1.64, system_id=1, flight_status=1, auto_time=24, lat=35.0623439, lon=129.0920048, alt=29.558, dist_traveled=637.0947204186059, wp_dist=193, heading=252, target_heading=-86, previous_heading=24150, dist_to_home=1596.041667933852, vertical_speed=1.2852278, ground_speed=25.859543, wind_vel=0.30795327, airspeed=25.231497, gps_hdop=1.21, roll=49.20, pitch=5.88, yaw=-107.60, ch3percent=98.50, ch9out=0, tot=7.46, toh=61.72, time_in_air=24, ch10out=0, ch11out=0, ch12out=0, battery_voltage=0, battery_current=-1, waypoints_count=0, home_location={lon=129.0921078, lat=35.0766972}, waypoints=[{seq=0, lat=35.0766972, lon=129.0921078, alt=43.85}, {seq=1, lat=0.0, lon=0.0, alt=30.0}, {seq=2, lat=35.074127, lon=129.092103, alt=30.0}, {seq=3, lat=35.068399, lon=129.089666, alt=30.0}, {seq=4, lat=35.066504, lon=129.091809, alt=30.0}, {seq=5, lat=35.06537, lon=129.093095, alt=30.0}, {seq=6, lat=35.064163, lon=129.094466, alt=30.0}, {seq=7, lat=35.062586, lon=129.092356, alt=30.0}, {seq=8, lat=35.061974, lon=129.091509, alt=30.0}, {seq=9, lat=35.06322, lon=129.090181, alt=30.0}, {seq=10, lat=35.064955, lon=129.088335, alt=30.0}, {seq=11, lat=35.066579, lon=129.086606, alt=30.0}, {seq=12, lat=35.067136, lon=129.086013, alt=30.0}, {seq=13, lat=35.074309, lon=129.091761, alt=30.0}, {seq=14, lat=0.0, lon=0.0, alt=0.0}], ch3out=1985, timestamp=2025-05-22 16:14:37}
{port=15001, GCS_IP=192.168.1.64, system_id=1, flight_status=1, auto_time=26, lat=35.0622936, lon=129.0917306, alt=31.105, dist_traveled=662.7421754552802, wp_dist=175, heading=263, target_heading=-68, previous_heading=26075, dist_to_home=1601.9750929206018, vertical_speed=-0.5337102, ground_speed=25.388624, wind_vel=0.31033063, airspeed=25.015886, gps_hdop=1.21, roll=38.56, pitch=-2.65, yaw=-96.62, ch3percent=58.60, ch9out=0, tot=6.89, toh=63.1, time_in_air=26, ch10out=0, ch11out=0, ch12out=0, battery_voltage=0, battery_current=-1, waypoints_count=0, home_location={lon=129.0921078, lat=35.0766972}, waypoints=[{seq=0, lat=35.0766972, lon=129.0921078, alt=43.85}, {seq=1, lat=0.0, lon=0.0, alt=30.0}, {seq=2, lat=35.074127, lon=129.092103, alt=30.0}, {seq=3, lat=35.068399, lon=129.089666, alt=30.0}, {seq=4, lat=35.066504, lon=129.091809, alt=30.0}, {seq=5, lat=35.06537, lon=129.093095, alt=30.0}, {seq=6, lat=35.064163, lon=129.094466, alt=30.0}, {seq=7, lat=35.062586, lon=129.092356, alt=30.0}, {seq=8, lat=35.061974, lon=129.091509, alt=30.0}, {seq=9, lat=35.06322, lon=129.090181, alt=30.0}, {seq=10, lat=35.064955, lon=129.088335, alt=30.0}, {seq=11, lat=35.066579, lon=129.086606, alt=30.0}, {seq=12, lat=35.067136, lon=129.086013, alt=30.0}, {seq=13, lat=35.074309, lon=129.091761, alt=30.0}, {seq=14, lat=0.0, lon=0.0, alt=0.0}], ch3out=1586, timestamp=2025-05-22 16:14:38}
{port=15001, GCS_IP=192.168.1.64, system_id=1, flight_status=1, auto_time=26, lat=35.0622919, lon=129.0914542, alt=30.865, dist_traveled=687.9731984579741, wp_dist=156, heading=279, target_heading=-55, previous_heading=27601, dist_to_home=1602.9003490769203, vertical_speed=-0.045436114, ground_speed=25.359856, wind_vel=0.3096323, airspeed=24.918928, gps_hdop=1.21, roll=37.13, pitch=-1.06, yaw=-80.44, ch3percent=66.40, ch9out=0, tot=6.15, toh=63.21, time_in_air=27, ch10out=0, ch11out=0, ch12out=0, battery_voltage=0, battery_current=-1, waypoints_count=0, home_location={lon=129.0921078, lat=35.0766972}, waypoints=[{seq=0, lat=35.0766972, lon=129.0921078, alt=43.85}, {seq=1, lat=0.0, lon=0.0, alt=30.0}, {seq=2, lat=35.074127, lon=129.092103, alt=30.0}, {seq=3, lat=35.068399, lon=129.089666, alt=30.0}, {seq=4, lat=35.066504, lon=129.091809, alt=30.0}, {seq=5, lat=35.06537, lon=129.093095, alt=30.0}, {seq=6, lat=35.064163, lon=129.094466, alt=30.0}, {seq=7, lat=35.062586, lon=129.092356, alt=30.0}, {seq=8, lat=35.061974, lon=129.091509, alt=30.0}, {seq=9, lat=35.06322, lon=129.090181, alt=30.0}, {seq=10, lat=35.064955, lon=129.088335, alt=30.0}, {seq=11, lat=35.066579, lon=129.086606, alt=30.0}, {seq=12, lat=35.067136, lon=129.086013, alt=30.0}, {seq=13, lat=35.074309, lon=129.091761, alt=30.0}, {seq=14, lat=0.0, lon=0.0, alt=0.0}], ch3out=1664, timestamp=2025-05-22 16:14:39}
{port=15001, GCS_IP=192.168.1.64, system_id=1, flight_status=1, auto_time=28, lat=35.0623502, lon=129.0911855, alt=30.684, dist_traveled=713.3142111142, wp_dist=134, heading=292, target_heading=-45, previous_heading=28949, dist_to_home=1597.5202355260494, vertical_speed=-0.3519328, ground_speed=25.389856, wind_vel=0.3060762, airspeed=24.936792, gps_hdop=1.21, roll=34.55, pitch=-1.91, yaw=-67.20, ch3percent=64.80, ch9out=0, tot=5.28, toh=62.92, time_in_air=28, ch10out=0, ch11out=0, ch12out=0, battery_voltage=0, battery_current=-1, waypoints_count=0, home_location={lon=129.0921078, lat=35.0766972}, waypoints=[{seq=0, lat=35.0766972, lon=129.0921078, alt=43.85}, {seq=1, lat=0.0, lon=0.0, alt=30.0}, {seq=2, lat=35.074127, lon=129.092103, alt=30.0}, {seq=3, lat=35.068399, lon=129.089666, alt=30.0}, {seq=4, lat=35.066504, lon=129.091809, alt=30.0}, {seq=5, lat=35.06537, lon=129.093095, alt=30.0}, {seq=6, lat=35.064163, lon=129.094466, alt=30.0}, {seq=7, lat=35.062586, lon=129.092356, alt=30.0}, {seq=8, lat=35.061974, lon=129.091509, alt=30.0}, {seq=9, lat=35.06322, lon=129.090181, alt=30.0}, {seq=10, lat=35.064955, lon=129.088335, alt=30.0}, {seq=11, lat=35.066579, lon=129.086606, alt=30.0}, {seq=12, lat=35.067136, lon=129.086013, alt=30.0}, {seq=13, lat=35.074309, lon=129.091761, alt=30.0}, {seq=14, lat=0.0, lon=0.0, alt=0.0}], ch3out=1648, timestamp=2025-05-22 16:14:40}
{port=15001, GCS_IP=192.168.1.64, system_id=1, flight_status=1, auto_time=29, lat=35.062398, lon=129.0910589, alt=30.514, dist_traveled=726.0036384701772, wp_dist=111, heading=304, target_heading=-38, previous_heading=29588, dist_to_home=1592.8614230681849, vertical_speed=-0.38681552, ground_speed=25.41187, wind_vel=0.29895654, airspeed=24.955553, gps_hdop=1.21, roll=28.26, pitch=-2.48, yaw=-55.62, ch3percent=63.50, ch9out=0, tot=4.37, toh=62.68, time_in_air=28, ch10out=0, ch11out=0, ch12out=0, battery_voltage=0, battery_current=-1, waypoints_count=0, home_location={lon=129.0921078, lat=35.0766972}, waypoints=[{seq=0, lat=35.0766972, lon=129.0921078, alt=43.85}, {seq=1, lat=0.0, lon=0.0, alt=30.0}, {seq=2, lat=35.074127, lon=129.092103, alt=30.0}, {seq=3, lat=35.068399, lon=129.089666, alt=30.0}, {seq=4, lat=35.066504, lon=129.091809, alt=30.0}, {seq=5, lat=35.06537, lon=129.093095, alt=30.0}, {seq=6, lat=35.064163, lon=129.094466, alt=30.0}, {seq=7, lat=35.062586, lon=129.092356, alt=30.0}, {seq=8, lat=35.061974, lon=129.091509, alt=30.0}, {seq=9, lat=35.06322, lon=129.090181, alt=30.0}, {seq=10, lat=35.064955, lon=129.088335, alt=30.0}, {seq=11, lat=35.066579, lon=129.086606, alt=30.0}, {seq=12, lat=35.067136, lon=129.086013, alt=30.0}, {seq=13, lat=35.074309, lon=129.091761, alt=30.0}, {seq=14, lat=0.0, lon=0.0, alt=0.0}], ch3out=1635, timestamp=2025-05-22 16:14:41}
{port=15001, GCS_IP=192.168.1.64, system_id=1, flight_status=1, auto_time=29, lat=35.0625983, lon=129.0907202, alt=29.887, dist_traveled=764.1024692326408, wp_dist=86, heading=313, target_heading=-35, previous_heading=31104, dist_to_home=1572.8040533421654, vertical_speed=-0.37353867, ground_speed=25.42294, wind_vel=0.289359, airspeed=24.92636, gps_hdop=1.21, roll=20.53, pitch=-2.80, yaw=-46.93, ch3percent=63.40, ch9out=0, tot=3.38, toh=61.87, time_in_air=30, ch10out=0, ch11out=0, ch12out=0, battery_voltage=0, battery_current=-1, waypoints_count=0, home_location={lon=129.0921078, lat=35.0766972}, waypoints=[{seq=0, lat=35.0766972, lon=129.0921078, alt=43.85}, {seq=1, lat=0.0, lon=0.0, alt=30.0}, {seq=2, lat=35.074127, lon=129.092103, alt=30.0}, {seq=3, lat=35.068399, lon=129.089666, alt=30.0}, {seq=4, lat=35.066504, lon=129.091809, alt=30.0}, {seq=5, lat=35.06537, lon=129.093095, alt=30.0}, {seq=6, lat=35.064163, lon=129.094466, alt=30.0}, {seq=7, lat=35.062586, lon=129.092356, alt=30.0}, {seq=8, lat=35.061974, lon=129.091509, alt=30.0}, {seq=9, lat=35.06322, lon=129.090181, alt=30.0}, {seq=10, lat=35.064955, lon=129.088335, alt=30.0}, {seq=11, lat=35.066579, lon=129.086606, alt=30.0}, {seq=12, lat=35.067136, lon=129.086013, alt=30.0}, {seq=13, lat=35.074309, lon=129.091761, alt=30.0}, {seq=14, lat=0.0, lon=0.0, alt=0.0}], ch3out=1634, timestamp=2025-05-22 16:14:42}
{port=15001, GCS_IP=192.168.1.64, system_id=1, flight_status=1, auto_time=30, lat=35.0627628, lon=129.0905262, alt=29.527, dist_traveled=789.5356053092678, wp_dist=61, heading=318, target_heading=-34, previous_heading=31772, dist_to_home=1556.1059392833065, vertical_speed=-0.22211753, ground_speed=25.466885, wind_vel=0.2840864, airspeed=24.913763, gps_hdop=1.21, roll=12.48, pitch=-2.81, yaw=-41.03, ch3percent=64.30, ch9out=0, tot=2.4, toh=61.1, time_in_air=30, ch10out=0, ch11out=0, ch12out=0, battery_voltage=0, battery_current=-1, waypoints_count=0, home_location={lon=129.0921078, lat=35.0766972}, waypoints=[{seq=0, lat=35.0766972, lon=129.0921078, alt=43.85}, {seq=1, lat=0.0, lon=0.0, alt=30.0}, {seq=2, lat=35.074127, lon=129.092103, alt=30.0}, {seq=3, lat=35.068399, lon=129.089666, alt=30.0}, {seq=4, lat=35.066504, lon=129.091809, alt=30.0}, {seq=5, lat=35.06537, lon=129.093095, alt=30.0}, {seq=6, lat=35.064163, lon=129.094466, alt=30.0}, {seq=7, lat=35.062586, lon=129.092356, alt=30.0}, {seq=8, lat=35.061974, lon=129.091509, alt=30.0}, {seq=9, lat=35.06322, lon=129.090181, alt=30.0}, {seq=10, lat=35.064955, lon=129.088335, alt=30.0}, {seq=11, lat=35.066579, lon=129.086606, alt=30.0}, {seq=12, lat=35.067136, lon=129.086013, alt=30.0}, {seq=13, lat=35.074309, lon=129.091761, alt=30.0}, {seq=14, lat=0.0, lon=0.0, alt=0.0}], ch3out=1643, timestamp=2025-05-22 16:14:43}
{port=15001, GCS_IP=192.168.1.64, system_id=1, flight_status=1, auto_time=32, lat=35.0629403, lon=129.0903492, alt=29.3, dist_traveled=815.015333900375, wp_dist=36, heading=322, target_heading=-34, previous_heading=32172, dist_to_home=1538.0472045565634, vertical_speed=-0.13737415, ground_speed=25.471981, wind_vel=0.26745698, airspeed=24.952322, gps_hdop=1.21, roll=6.12, pitch=-2.80, yaw=-37.61, ch3percent=65.30, ch9out=0, tot=1.41, toh=60.38, time_in_air=32, ch10out=0, ch11out=0, ch12out=0, battery_voltage=0, battery_current=-1, waypoints_count=0, home_location={lon=129.0921078, lat=35.0766972}, waypoints=[{seq=0, lat=35.0766972, lon=129.0921078, alt=43.85}, {seq=1, lat=0.0, lon=0.0, alt=30.0}, {seq=2, lat=35.074127, lon=129.092103, alt=30.0}, {seq=3, lat=35.068399, lon=129.089666, alt=30.0}, {seq=4, lat=35.066504, lon=129.091809, alt=30.0}, {seq=5, lat=35.06537, lon=129.093095, alt=30.0}, {seq=6, lat=35.064163, lon=129.094466, alt=30.0}, {seq=7, lat=35.062586, lon=129.092356, alt=30.0}, {seq=8, lat=35.061974, lon=129.091509, alt=30.0}, {seq=9, lat=35.06322, lon=129.090181, alt=30.0}, {seq=10, lat=35.064955, lon=129.088335, alt=30.0}, {seq=11, lat=35.066579, lon=129.086606, alt=30.0}, {seq=12, lat=35.067136, lon=129.086013, alt=30.0}, {seq=13, lat=35.074309, lon=129.091761, alt=30.0}, {seq=14, lat=0.0, lon=0.0, alt=0.0}], ch3out=1653, timestamp=2025-05-22 16:14:44}
{port=15001, GCS_IP=192.168.1.64, system_id=1, flight_status=1, auto_time=32, lat=35.0631227, lon=129.0901822, alt=29.215, dist_traveled=840.3611117095326, wp_dist=12, heading=323, target_heading=-36, previous_heading=32369, dist_to_home=1519.5544845947388, vertical_speed=-0.053752907, ground_speed=25.47459, wind_vel=0.2557405, airspeed=24.97627, gps_hdop=1.21, roll=1.32, pitch=-2.65, yaw=-36.17, ch3percent=66.10, ch9out=0, tot=0.47, toh=59.65, time_in_air=33, ch10out=0, ch11out=0, ch12out=0, battery_voltage=0, battery_current=-1, waypoints_count=0, home_location={lon=129.0921078, lat=35.0766972}, waypoints=[{seq=0, lat=35.0766972, lon=129.0921078, alt=43.85}, {seq=1, lat=0.0, lon=0.0, alt=30.0}, {seq=2, lat=35.074127, lon=129.092103, alt=30.0}, {seq=3, lat=35.068399, lon=129.089666, alt=30.0}, {seq=4, lat=35.066504, lon=129.091809, alt=30.0}, {seq=5, lat=35.06537, lon=129.093095, alt=30.0}, {seq=6, lat=35.064163, lon=129.094466, alt=30.0}, {seq=7, lat=35.062586, lon=129.092356, alt=30.0}, {seq=8, lat=35.061974, lon=129.091509, alt=30.0}, {seq=9, lat=35.06322, lon=129.090181, alt=30.0}, {seq=10, lat=35.064955, lon=129.088335, alt=30.0}, {seq=11, lat=35.066579, lon=129.086606, alt=30.0}, {seq=12, lat=35.067136, lon=129.086013, alt=30.0}, {seq=13, lat=35.074309, lon=129.091761, alt=30.0}, {seq=14, lat=0.0, lon=0.0, alt=0.0}], ch3out=1661, timestamp=2025-05-22 16:14:45}
{port=15001, GCS_IP=192.168.1.64, system_id=1, flight_status=1, auto_time=33, lat=35.0633075, lon=129.0900173, alt=29.219, dist_traveled=865.8072522341246, wp_dist=240, heading=324, target_heading=-37, previous_heading=32408, dist_to_home=1500.9728967220083, vertical_speed=0.043960404, ground_speed=25.493841, wind_vel=0.24498117, airspeed=24.979538, gps_hdop=1.21, roll=-1.34, pitch=-2.42, yaw=-35.95, ch3percent=66.60, ch9out=0, tot=9.41, toh=58.88, time_in_air=34, ch10out=0, ch11out=0, ch12out=0, battery_voltage=0, battery_current=-1, waypoints_count=0, home_location={lon=129.0921078, lat=35.0766972}, waypoints=[{seq=0, lat=35.0766972, lon=129.0921078, alt=43.85}, {seq=1, lat=0.0, lon=0.0, alt=30.0}, {seq=2, lat=35.074127, lon=129.092103, alt=30.0}, {seq=3, lat=35.068399, lon=129.089666, alt=30.0}, {seq=4, lat=35.066504, lon=129.091809, alt=30.0}, {seq=5, lat=35.06537, lon=129.093095, alt=30.0}, {seq=6, lat=35.064163, lon=129.094466, alt=30.0}, {seq=7, lat=35.062586, lon=129.092356, alt=30.0}, {seq=8, lat=35.061974, lon=129.091509, alt=30.0}, {seq=9, lat=35.06322, lon=129.090181, alt=30.0}, {seq=10, lat=35.064955, lon=129.088335, alt=30.0}, {seq=11, lat=35.066579, lon=129.086606, alt=30.0}, {seq=12, lat=35.067136, lon=129.086013, alt=30.0}, {seq=13, lat=35.074309, lon=129.091761, alt=30.0}, {seq=14, lat=0.0, lon=0.0, alt=0.0}], ch3out=1666, timestamp=2025-05-22 16:14:46}
{port=15001, GCS_IP=192.168.1.64, system_id=1, flight_status=1, auto_time=34, lat=35.0634923, lon=129.0898511, alt=29.318, dist_traveled=891.3234333651496, wp_dist=215, heading=323, target_heading=-38, previous_heading=32367, dist_to_home=1482.6115253357962, vertical_speed=0.083150096, ground_speed=25.52992, wind_vel=0.23617765, airspeed=24.968922, gps_hdop=1.21, roll=-2.78, pitch=-2.31, yaw=-36.55, ch3percent=66.80, ch9out=0, tot=8.42, toh=58.07, time_in_air=35, ch10out=0, ch11out=0, ch12out=0, battery_voltage=0, battery_current=-1, waypoints_count=0, home_location={lon=129.0921078, lat=35.0766972}, waypoints=[{seq=0, lat=35.0766972, lon=129.0921078, alt=43.85}, {seq=1, lat=0.0, lon=0.0, alt=30.0}, {seq=2, lat=35.074127, lon=129.092103, alt=30.0}, {seq=3, lat=35.068399, lon=129.089666, alt=30.0}, {seq=4, lat=35.066504, lon=129.091809, alt=30.0}, {seq=5, lat=35.06537, lon=129.093095, alt=30.0}, {seq=6, lat=35.064163, lon=129.094466, alt=30.0}, {seq=7, lat=35.062586, lon=129.092356, alt=30.0}, {seq=8, lat=35.061974, lon=129.091509, alt=30.0}, {seq=9, lat=35.06322, lon=129.090181, alt=30.0}, {seq=10, lat=35.064955, lon=129.088335, alt=30.0}, {seq=11, lat=35.066579, lon=129.086606, alt=30.0}, {seq=12, lat=35.067136, lon=129.086013, alt=30.0}, {seq=13, lat=35.074309, lon=129.091761, alt=30.0}, {seq=14, lat=0.0, lon=0.0, alt=0.0}], ch3out=1668, timestamp=2025-05-22 16:14:47}
{port=15001, GCS_IP=192.168.1.64, system_id=1, flight_status=1, auto_time=35, lat=35.0636755, lon=129.0896811, alt=29.447, dist_traveled=916.9043794844217, wp_dist=189, heading=322, target_heading=-39, previous_heading=32274, dist_to_home=1464.692488369039, vertical_speed=0.14956893, ground_speed=25.542547, wind_vel=0.22903615, airspeed=24.972187, gps_hdop=1.21, roll=-3.23, pitch=-2.14, yaw=-37.56, ch3percent=66.50, ch9out=0, tot=7.4, toh=57.34, time_in_air=36, ch10out=0, ch11out=0, ch12out=0, battery_voltage=0, battery_current=-1, waypoints_count=0, home_location={lon=129.0921078, lat=35.0766972}, waypoints=[{seq=0, lat=35.0766972, lon=129.0921078, alt=43.85}, {seq=1, lat=0.0, lon=0.0, alt=30.0}, {seq=2, lat=35.074127, lon=129.092103, alt=30.0}, {seq=3, lat=35.068399, lon=129.089666, alt=30.0}, {seq=4, lat=35.066504, lon=129.091809, alt=30.0}, {seq=5, lat=35.06537, lon=129.093095, alt=30.0}, {seq=6, lat=35.064163, lon=129.094466, alt=30.0}, {seq=7, lat=35.062586, lon=129.092356, alt=30.0}, {seq=8, lat=35.061974, lon=129.091509, alt=30.0}, {seq=9, lat=35.06322, lon=129.090181, alt=30.0}, {seq=10, lat=35.064955, lon=129.088335, alt=30.0}, {seq=11, lat=35.066579, lon=129.086606, alt=30.0}, {seq=12, lat=35.067136, lon=129.086013, alt=30.0}, {seq=13, lat=35.074309, lon=129.091761, alt=30.0}, {seq=14, lat=0.0, lon=0.0, alt=0.0}], ch3out=1665, timestamp=2025-05-22 16:14:48}
{port=15001, GCS_IP=192.168.1.64, system_id=1, flight_status=1, auto_time=37, lat=35.0638555, lon=129.0895074, alt=29.587, dist_traveled=942.4102499828568, wp_dist=164, heading=321, target_heading=-40, previous_heading=32161, dist_to_home=1447.4098228072185, vertical_speed=0.11813661, ground_speed=25.525444, wind_vel=0.22319476, airspeed=24.950375, gps_hdop=1.21, roll=-3.00, pitch=-2.21, yaw=-38.54, ch3percent=66.20, ch9out=0, tot=6.42, toh=56.7, time_in_air=37, ch10out=0, ch11out=0, ch12out=0, battery_voltage=0, battery_current=-1, waypoints_count=0, home_location={lon=129.0921078, lat=35.0766972}, waypoints=[{seq=0, lat=35.0766972, lon=129.0921078, alt=43.85}, {seq=1, lat=0.0, lon=0.0, alt=30.0}, {seq=2, lat=35.074127, lon=129.092103, alt=30.0}, {seq=3, lat=35.068399, lon=129.089666, alt=30.0}, {seq=4, lat=35.066504, lon=129.091809, alt=30.0}, {seq=5, lat=35.06537, lon=129.093095, alt=30.0}, {seq=6, lat=35.064163, lon=129.094466, alt=30.0}, {seq=7, lat=35.062586, lon=129.092356, alt=30.0}, {seq=8, lat=35.061974, lon=129.091509, alt=30.0}, {seq=9, lat=35.06322, lon=129.090181, alt=30.0}, {seq=10, lat=35.064955, lon=129.088335, alt=30.0}, {seq=11, lat=35.066579, lon=129.086606, alt=30.0}, {seq=12, lat=35.067136, lon=129.086013, alt=30.0}, {seq=13, lat=35.074309, lon=129.091761, alt=30.0}, {seq=14, lat=0.0, lon=0.0, alt=0.0}], ch3out=1662, timestamp=2025-05-22 16:14:49}
{port=15001, GCS_IP=192.168.1.64, system_id=1, flight_status=1, auto_time=37, lat=35.0640327, lon=129.08933, alt=29.673, dist_traveled=967.8845212375427, wp_dist=138, heading=320, target_heading=-41, previous_heading=32063, dist_to_home=1430.739037985565, vertical_speed=0.13028507, ground_speed=25.495342, wind_vel=0.21860813, airspeed=24.941124, gps_hdop=1.21, roll=-2.48, pitch=-2.10, yaw=-39.49, ch3percent=66.40, ch9out=0, tot=5.41, toh=56.12, time_in_air=38, ch10out=0, ch11out=0, ch12out=0, battery_voltage=0, battery_current=-1, waypoints_count=0, home_location={lon=129.0921078, lat=35.0766972}, waypoints=[{seq=0, lat=35.0766972, lon=129.0921078, alt=43.85}, {seq=1, lat=0.0, lon=0.0, alt=30.0}, {seq=2, lat=35.074127, lon=129.092103, alt=30.0}, {seq=3, lat=35.068399, lon=129.089666, alt=30.0}, {seq=4, lat=35.066504, lon=129.091809, alt=30.0}, {seq=5, lat=35.06537, lon=129.093095, alt=30.0}, {seq=6, lat=35.064163, lon=129.094466, alt=30.0}, {seq=7, lat=35.062586, lon=129.092356, alt=30.0}, {seq=8, lat=35.061974, lon=129.091509, alt=30.0}, {seq=9, lat=35.06322, lon=129.090181, alt=30.0}, {seq=10, lat=35.064955, lon=129.088335, alt=30.0}, {seq=11, lat=35.066579, lon=129.086606, alt=30.0}, {seq=12, lat=35.067136, lon=129.086013, alt=30.0}, {seq=13, lat=35.074309, lon=129.091761, alt=30.0}, {seq=14, lat=0.0, lon=0.0, alt=0.0}], ch3out=1664, timestamp=2025-05-22 16:14:50}
{port=15001, GCS_IP=192.168.1.64, system_id=1, flight_status=1, auto_time=38, lat=35.0642074, lon=129.0891496, alt=29.757, dist_traveled=993.3197349960224, wp_dist=113, heading=319, target_heading=-41, previous_heading=31983, dist_to_home=1414.6554095513961, vertical_speed=0.07413736, ground_speed=25.480019, wind_vel=0.21522541, airspeed=24.930164, gps_hdop=1.21, roll=-1.80, pitch=-2.23, yaw=-40.30, ch3percent=66.60, ch9out=0, tot=4.43, toh=55.52, time_in_air=39, ch10out=0, ch11out=0, ch12out=0, battery_voltage=0, battery_current=-1, waypoints_count=0, home_location={lon=129.0921078, lat=35.0766972}, waypoints=[{seq=0, lat=35.0766972, lon=129.0921078, alt=43.85}, {seq=1, lat=0.0, lon=0.0, alt=30.0}, {seq=2, lat=35.074127, lon=129.092103, alt=30.0}, {seq=3, lat=35.068399, lon=129.089666, alt=30.0}, {seq=4, lat=35.066504, lon=129.091809, alt=30.0}, {seq=5, lat=35.06537, lon=129.093095, alt=30.0}, {seq=6, lat=35.064163, lon=129.094466, alt=30.0}, {seq=7, lat=35.062586, lon=129.092356, alt=30.0}, {seq=8, lat=35.061974, lon=129.091509, alt=30.0}, {seq=9, lat=35.06322, lon=129.090181, alt=30.0}, {seq=10, lat=35.064955, lon=129.088335, alt=30.0}, {seq=11, lat=35.066579, lon=129.086606, alt=30.0}, {seq=12, lat=35.067136, lon=129.086013, alt=30.0}, {seq=13, lat=35.074309, lon=129.091761, alt=30.0}, {seq=14, lat=0.0, lon=0.0, alt=0.0}], ch3out=1666, timestamp=2025-05-22 16:14:51}
{port=15001, GCS_IP=192.168.1.64, system_id=1, flight_status=1, auto_time=40, lat=35.0643801, lon=129.0889671, alt=29.837, dist_traveled=1018.7100051666602, wp_dist=87, heading=319, target_heading=-41, previous_heading=31928, dist_to_home=1399.106057259067, vertical_speed=0.06534151, ground_speed=25.44108, wind_vel=0.2131064, airspeed=24.94403, gps_hdop=1.21, roll=-0.98, pitch=-2.16, yaw=-40.81, ch3percent=66.10, ch9out=0, tot=3.42, toh=54.99, time_in_air=40, ch10out=0, ch11out=0, ch12out=0, battery_voltage=0, battery_current=-1, waypoints_count=0, home_location={lon=129.0921078, lat=35.0766972}, waypoints=[{seq=0, lat=35.0766972, lon=129.0921078, alt=43.85}, {seq=1, lat=0.0, lon=0.0, alt=30.0}, {seq=2, lat=35.074127, lon=129.092103, alt=30.0}, {seq=3, lat=35.068399, lon=129.089666, alt=30.0}, {seq=4, lat=35.066504, lon=129.091809, alt=30.0}, {seq=5, lat=35.06537, lon=129.093095, alt=30.0}, {seq=6, lat=35.064163, lon=129.094466, alt=30.0}, {seq=7, lat=35.062586, lon=129.092356, alt=30.0}, {seq=8, lat=35.061974, lon=129.091509, alt=30.0}, {seq=9, lat=35.06322, lon=129.090181, alt=30.0}, {seq=10, lat=35.064955, lon=129.088335, alt=30.0}, {seq=11, lat=35.066579, lon=129.086606, alt=30.0}, {seq=12, lat=35.067136, lon=129.086013, alt=30.0}, {seq=13, lat=35.074309, lon=129.091761, alt=30.0}, {seq=14, lat=0.0, lon=0.0, alt=0.0}], ch3out=1661, timestamp=2025-05-22 16:14:52}
{port=15001, GCS_IP=192.168.1.64, system_id=1, flight_status=1, auto_time=41, lat=35.0645522, lon=129.0887823, alt=29.896, dist_traveled=1044.1874955195, wp_dist=62, heading=318, target_heading=-41, previous_heading=31884, dist_to_home=1383.9586835575367, vertical_speed=0.06431745, ground_speed=25.467094, wind_vel=0.21220818, airspeed=24.979208, gps_hdop=1.21, roll=-0.36, pitch=-2.23, yaw=-41.19, ch3percent=66.20, ch9out=0, tot=2.43, toh=54.34, time_in_air=41, ch10out=0, ch11out=0, ch12out=0, battery_voltage=0, battery_current=-1, waypoints_count=0, home_location={lon=129.0921078, lat=35.0766972}, waypoints=[{seq=0, lat=35.0766972, lon=129.0921078, alt=43.85}, {seq=1, lat=0.0, lon=0.0, alt=30.0}, {seq=2, lat=35.074127, lon=129.092103, alt=30.0}, {seq=3, lat=35.068399, lon=129.089666, alt=30.0}, {seq=4, lat=35.066504, lon=129.091809, alt=30.0}, {seq=5, lat=35.06537, lon=129.093095, alt=30.0}, {seq=6, lat=35.064163, lon=129.094466, alt=30.0}, {seq=7, lat=35.062586, lon=129.092356, alt=30.0}, {seq=8, lat=35.061974, lon=129.091509, alt=30.0}, {seq=9, lat=35.06322, lon=129.090181, alt=30.0}, {seq=10, lat=35.064955, lon=129.088335, alt=30.0}, {seq=11, lat=35.066579, lon=129.086606, alt=30.0}, {seq=12, lat=35.067136, lon=129.086013, alt=30.0}, {seq=13, lat=35.074309, lon=129.091761, alt=30.0}, {seq=14, lat=0.0, lon=0.0, alt=0.0}], ch3out=1662, timestamp=2025-05-22 16:14:53}
{port=15001, GCS_IP=192.168.1.64, system_id=1, flight_status=1, auto_time=41, lat=35.0647234, lon=129.0885971, alt=29.954, dist_traveled=1069.6139815994634, wp_dist=36, heading=318, target_heading=-41, previous_heading=31878, dist_to_home=1369.2236221858934, vertical_speed=0.024918627, ground_speed=25.39064, wind_vel=0.21230394, airspeed=24.973824, gps_hdop=1.21, roll=0.04, pitch=-2.23, yaw=-41.30, ch3percent=65.70, ch9out=0, tot=1.42, toh=53.93, time_in_air=42, ch10out=0, ch11out=0, ch12out=0, battery_voltage=0, battery_current=-1, waypoints_count=0, home_location={lon=129.0921078, lat=35.0766972}, waypoints=[{seq=0, lat=35.0766972, lon=129.0921078, alt=43.85}, {seq=1, lat=0.0, lon=0.0, alt=30.0}, {seq=2, lat=35.074127, lon=129.092103, alt=30.0}, {seq=3, lat=35.068399, lon=129.089666, alt=30.0}, {seq=4, lat=35.066504, lon=129.091809, alt=30.0}, {seq=5, lat=35.06537, lon=129.093095, alt=30.0}, {seq=6, lat=35.064163, lon=129.094466, alt=30.0}, {seq=7, lat=35.062586, lon=129.092356, alt=30.0}, {seq=8, lat=35.061974, lon=129.091509, alt=30.0}, {seq=9, lat=35.06322, lon=129.090181, alt=30.0}, {seq=10, lat=35.064955, lon=129.088335, alt=30.0}, {seq=11, lat=35.066579, lon=129.086606, alt=30.0}, {seq=12, lat=35.067136, lon=129.086013, alt=30.0}, {seq=13, lat=35.074309, lon=129.091761, alt=30.0}, {seq=14, lat=0.0, lon=0.0, alt=0.0}], ch3out=1657, timestamp=2025-05-22 16:14:54}
